[  {
    "name": "Hidden Treasure",
    "difficulty": 3,
    "size": 2,
    "id": 1234,
    "author": "John Smith",
    "isFeatured": true,
    "coordinates": {
      "latitude": 40.7128,
      "longitude": -74.0060
    },
    "description": "This cache is located in a park near the river. Look for a large rock near the edge of the water."
  },
  {
    "name": "The Lost Key",
    "difficulty": 2,
    "size": 3,
    "id": 5678,
    "author": "Jane Doe",
    "isFeatured": false,
    "coordinates": {
      "latitude": 37.7749,
      "longitude": -122.4194
    },
    "description": "This cache is hidden under a pile of rocks near a large tree. Use the hint to find the exact location."
  },
  {
    "name": "The Puzzle Cache",
    "difficulty": 4,
    "size": 1,
    "id": 9101,
    "author": "Bob Johnson",
    "isFeatured": true,
    "coordinates": {
      "latitude": 51.5074,
      "longitude": -0.1278
    },
    "description": "To find this cache, you'll need to solve a puzzle. Look for the clue hidden in the nearby statue."
  },
  {
    "name": "The Cave Cache",
    "difficulty": 5,
    "size": 4,
    "id": 1112,
    "author": "Samantha Lee",
    "isFeatured": false,
    "coordinates": {
      "latitude": 40.4319,
      "longitude": -111.9035
    },
    "description": "This cache is hidden deep inside a cave. Bring a flashlight and be prepared for a challenging hike."
  },
  {
    "name": "The Urban Cache",
    "difficulty": 1,
    "size": 2,
    "id": 1314,
    "author": "David Kim",
    "isFeatured": true,
    "coordinates": {
      "latitude": 45.5231,
      "longitude": -122.6765
    },
    "description": "This cache is hidden in a busy downtown area. Look for a small container near the base of a statue."
  },
  {
    "name": "The Treehouse Cache",
    "difficulty": 3,
    "size": 3,
    "id": 1516,
    "author": "Emily Chen",
    "isFeatured": false,
    "coordinates": {
      "latitude": 37.3382,
      "longitude": -121.8863
    },
    "description": "This cache is hidden in a treehouse near the edge of a forest. Climb up and look for a small container tucked away in a corner."
  },
  {
    "name": "The Island Cache",
    "difficulty": 4,
    "size": 4,
    "id": 1718,
    "author": "Mike Brown",
    "isFeatured": true,
    "coordinates": {
      "latitude": 21.4515,
      "longitude": -157.9647
    },
    "description": "To find this cache, you'll need to..."
  }
]
